$GPGGA,175504.850,6008.622,N,02443.275,E,1,12,1.0,0.0,M,0.0,M,,*68
$HCHDM,130,M
$GPGSA,A,3,01,02,03,04,05,06,07,08,09,10,11,12,1.0,1.0,1.0*30
$HCHDM,130,M
$GPRMC,175504.850,A,6008.622,N,02443.275,E,384.1,104.4,200124,000.0,W*76
$HCHDM,130,M
$GPGGA,175505.850,6008.574,N,02443.466,E,1,12,1.0,0.0,M,0.0,M,,*6D
$HCHDM,130,M
$GPGSA,A,3,01,02,03,04,05,06,07,08,09,10,11,12,1.0,1.0,1.0*30
$HCHDM,130,M
$GPRMC,175505.850,A,6008.574,N,02443.466,E,294.5,113.7,200124,000.0,W*72
$HCHDM,130,M
$GPGGA,175506.850,6008.520,N,02443.589,E,1,12,1.0,0.0,M,0.0,M,,*6F
$HCHDM,130,M
$GPGSA,A,3,01,02,03,04,05,06,07,08,09,10,11,12,1.0,1.0,1.0*30
$HCHDM,130,M
$GPRMC,175506.850,A,6008.520,N,02443.589,E,264.2,092.5,200124,000.0,W*72
$HCHDM,130,M
$GPGGA,175507.850,6008.513,N,02443.736,E,1,12,1.0,0.0,M,0.0,M,,*68
$HCHDM,130,M
$GPGSA,A,3,01,02,03,04,05,06,07,08,09,10,11,12,1.0,1.0,1.0*30
$HCHDM,130,M
$GPRMC,175507.850,A,6008.513,N,02443.736,E,355.9,088.9,200124,000.0,W*7A
$HCHDM,130,M
$GPGGA,175508.850,6008.517,N,02443.934,E,1,12,1.0,0.0,M,0.0,M,,*6F
$HCHDM,130,M
$GPGSA,A,3,01,02,03,04,05,06,07,08,09,10,11,12,1.0,1.0,1.0*30
$HCHDM,130,M
$GPRMC,175508.850,A,6008.517,N,02443.934,E,295.7,122.0,200124,000.0,W*76
$HCHDM,130,M
$GPGGA,175509.850,6008.453,N,02444.037,E,1,12,1.0,0.0,M,0.0,M,,*62
$HCHDM,130,M
$GPGSA,A,3,01,02,03,04,05,06,07,08,09,10,11,12,1.0,1.0,1.0*30
$HCHDM,130,M
$GPRMC,175509.850,A,6008.453,N,02444.037,E,448.4,128.3,200124,000.0,W*77
$HCHDM,130,M
$GPGGA,175510.850,6008.348,N,02444.171,E,1,12,1.0,0.0,M,0.0,M,,*64
$HCHDM,130,M
$GPGSA,A,3,01,02,03,04,05,06,07,08,09,10,11,12,1.0,1.0,1.0*30
$HCHDM,130,M
$GPRMC,175510.850,A,6008.348,N,02444.171,E,486.8,127.2,200124,000.0,W*71
$HCHDM,130,M
$GPGGA,175511.850,6008.235,N,02444.321,E,1,12,1.0,0.0,M,0.0,M,,*69
$HCHDM,130,M
$GPGSA,A,3,01,02,03,04,05,06,07,08,09,10,11,12,1.0,1.0,1.0*30
$HCHDM,130,M
$GPRMC,175511.850,A,6008.235,N,02444.321,E,278.1,119.4,200124,000.0,W*79
$HCHDM,130,M
$GPGGA,175512.850,6008.177,N,02444.424,E,1,12,1.0,0.0,M,0.0,M,,*6D
$HCHDM,130,M
$GPGSA,A,3,01,02,03,04,05,06,07,08,09,10,11,12,1.0,1.0,1.0*30
$HCHDM,130,M
$GPRMC,175512.850,A,6008.177,N,02444.424,E,758.7,132.4,200124,000.0,W*75
$HCHDM,130,M
$GPGGA,175513.850,6007.993,N,02444.627,E,1,12,1.0,0.0,M,0.0,M,,*60
$HCHDM,130,M
$GPGSA,A,3,01,02,03,04,05,06,07,08,09,10,11,12,1.0,1.0,1.0*30
$HCHDM,130,M
$GPRMC,175513.850,A,6007.993,N,02444.627,E,680.3,127.3,200124,000.0,W*7B
$HCHDM,130,M
$GPGGA,175514.850,6007.835,N,02444.836,E,1,12,1.0,0.0,M,0.0,M,,*64
$HCHDM,130,M
$GPGSA,A,3,01,02,03,04,05,06,07,08,09,10,11,12,1.0,1.0,1.0*30
$HCHDM,130,M
$GPRMC,175514.850,A,6007.835,N,02444.836,E,485.1,180.0,200124,000.0,W*74
$HCHDM,130,M
$GPGGA,175515.850,6007.700,N,02444.836,E,1,12,1.0,0.0,M,0.0,M,,*6C
$HCHDM,130,M
$GPGSA,A,3,01,02,03,04,05,06,07,08,09,10,11,12,1.0,1.0,1.0*30
$HCHDM,130,M
$GPRMC,175515.850,A,6007.700,N,02444.836,E,471.5,183.4,200124,000.0,W*74
$HCHDM,130,M
$GPGGA,175516.850,6007.570,N,02444.828,E,1,12,1.0,0.0,M,0.0,M,,*65
$HCHDM,130,M
$GPGSA,A,3,01,02,03,04,05,06,07,08,09,10,11,12,1.0,1.0,1.0*30
$HCHDM,130,M
$GPRMC,175516.850,A,6007.570,N,02444.828,E,371.6,111.7,200124,000.0,W*71
$HCHDM,130,M
$GPGGA,175517.850,6007.506,N,02444.990,E,1,12,1.0,0.0,M,0.0,M,,*67
$HCHDM,130,M
$GPGSA,A,3,01,02,03,04,05,06,07,08,09,10,11,12,1.0,1.0,1.0*30
$HCHDM,130,M
$GPRMC,175517.850,A,6007.506,N,02444.990,E,760.1,087.7,200124,000.0,W*7E
$HCHDM,130,M
$GPGGA,175518.850,6007.522,N,02445.413,E,1,12,1.0,0.0,M,0.0,M,,*69
$HCHDM,130,M
$GPGSA,A,3,01,02,03,04,05,06,07,08,09,10,11,12,1.0,1.0,1.0*30
$HCHDM,130,M
$GPRMC,175518.850,A,6007.522,N,02445.413,E,364.7,039.4,200124,000.0,W*70
$HCHDM,130,M
$GPGGA,175519.850,6007.616,N,02445.490,E,1,12,1.0,0.0,M,0.0,M,,*67
$HCHDM,130,M
$GPGSA,A,3,01,02,03,04,05,06,07,08,09,10,11,12,1.0,1.0,1.0*30
$HCHDM,130,M
$GPRMC,175519.850,A,6007.616,N,02445.490,E,834.4,324.4,200124,000.0,W*7C
$HCHDM,130,M
$GPGGA,175520.850,6007.834,N,02445.333,E,1,12,1.0,0.0,M,0.0,M,,*6D
$HCHDM,130,M
$GPGSA,A,3,01,02,03,04,05,06,07,08,09,10,11,12,1.0,1.0,1.0*30
$HCHDM,130,M
$GPRMC,175520.850,A,6007.834,N,02445.333,E,767.1,300.7,200124,000.0,W*7F
$HCHDM,130,M
$GPGGA,175521.850,6007.997,N,02445.057,E,1,12,1.0,0.0,M,0.0,M,,*65
$HCHDM,130,M
$GPGSA,A,3,01,02,03,04,05,06,07,08,09,10,11,12,1.0,1.0,1.0*30
$HCHDM,130,M
$GPRMC,175521.850,A,6007.997,N,02445.057,E,867.8,300.0,200124,000.0,W*76
$HCHDM,130,M
$GPGGA,175522.850,6008.179,N,02444.740,E,1,12,1.0,0.0,M,0.0,M,,*61
$HCHDM,130,M
$GPGSA,A,3,01,02,03,04,05,06,07,08,09,10,11,12,1.0,1.0,1.0*30
$HCHDM,130,M
$GPRMC,175522.850,A,6008.179,N,02444.740,E,356.3,096.9,200124,000.0,W*75
$HCHDM,130,M
$GPGGA,175523.850,6008.156,N,02444.934,E,1,12,1.0,0.0,M,0.0,M,,*60
$HCHDM,130,M
$GPGSA,A,3,01,02,03,04,05,06,07,08,09,10,11,12,1.0,1.0,1.0*30
$HCHDM,130,M
$GPRMC,175523.850,A,6008.156,N,02444.934,E,747.3,092.8,200124,000.0,W*75
$HCHDM,130,M
$GPGGA,175524.850,6008.135,N,02445.348,E,1,12,1.0,0.0,M,0.0,M,,*62
$HCHDM,130,M
$GPGSA,A,3,01,02,03,04,05,06,07,08,09,10,11,12,1.0,1.0,1.0*30
$HCHDM,130,M
$GPRMC,175524.850,A,6008.135,N,02445.348,E,392.6,090.3,200124,000.0,W*77
$HCHDM,130,M
$GPGGA,175525.850,6008.134,N,02445.567,E,1,12,1.0,0.0,M,0.0,M,,*69
$HCHDM,130,M
$GPGSA,A,3,01,02,03,04,05,06,07,08,09,10,11,12,1.0,1.0,1.0*30
$HCHDM,130,M
$GPRMC,175525.850,A,6008.134,N,02445.567,E,467.6,072.0,200124,000.0,W*7E
$HCHDM,130,M
$GPGGA,175526.850,6008.204,N,02445.786,E,1,12,1.0,0.0,M,0.0,M,,*67
$HCHDM,130,M
$GPGSA,A,3,01,02,03,04,05,06,07,08,09,10,11,12,1.0,1.0,1.0*30
$HCHDM,130,M
$GPRMC,175526.850,A,6008.204,N,02445.786,E,604.2,063.2,200124,000.0,W*71
$HCHDM,130,M
$GPGGA,175527.850,6008.324,N,02446.023,E,1,12,1.0,0.0,M,0.0,M,,*6E
$HCHDM,130,M
$GPGSA,A,3,01,02,03,04,05,06,07,08,09,10,11,12,1.0,1.0,1.0*30
$HCHDM,130,M
$GPRMC,175527.850,A,6008.324,N,02446.023,E,559.0,002.8,200124,000.0,W*7C
$HCHDM,130,M
$GPGGA,175528.850,6008.479,N,02446.030,E,1,12,1.0,0.0,M,0.0,M,,*6C
$HCHDM,130,M
$GPGSA,A,3,01,02,03,04,05,06,07,08,09,10,11,12,1.0,1.0,1.0*30
$HCHDM,130,M
$GPRMC,175528.850,A,6008.479,N,02446.030,E,475.1,322.4,200124,000.0,W*7D
$HCHDM,130,M
$GPGGA,175529.850,6008.602,N,02445.935,E,1,12,1.0,0.0,M,0.0,M,,*6C
$HCHDM,130,M
$GPGSA,A,3,01,02,03,04,05,06,07,08,09,10,11,12,1.0,1.0,1.0*30
$HCHDM,130,M
$GPRMC,175529.850,A,6008.602,N,02445.935,E,222.0,328.7,200124,000.0,W*71
$HCHDM,130,M
$GPGGA,175530.850,6008.661,N,02445.899,E,1,12,1.0,0.0,M,0.0,M,,*66
$HCHDM,130,M
$GPGSA,A,3,01,02,03,04,05,06,07,08,09,10,11,12,1.0,1.0,1.0*30
$HCHDM,130,M
$GPRMC,175530.850,A,6008.661,N,02445.899,E,302.7,258.9,200124,000.0,W*77
$HCHDM,130,M
$GPGGA,175531.850,6008.630,N,02445.742,E,1,12,1.0,0.0,M,0.0,M,,*6A
$HCHDM,130,M
$GPGSA,A,3,01,02,03,04,05,06,07,08,09,10,11,12,1.0,1.0,1.0*30
$HCHDM,130,M
$GPRMC,175531.850,A,6008.630,N,02445.742,E,117.7,245.9,200124,000.0,W*71
$HCHDM,130,M
$GPGGA,175532.850,6008.608,N,02445.693,E,1,12,1.0,0.0,M,0.0,M,,*6F
$HCHDM,130,M
$GPGSA,A,3,01,02,03,04,05,06,07,08,09,10,11,12,1.0,1.0,1.0*30
$HCHDM,130,M
$GPRMC,175532.850,A,6008.608,N,02445.693,E,570.7,267.2,200124,000.0,W*7A
$HCHDM,130,M
$GPGGA,175533.850,6008.593,N,02445.376,E,1,12,1.0,0.0,M,0.0,M,,*61
$HCHDM,130,M
$GPGSA,A,3,01,02,03,04,05,06,07,08,09,10,11,12,1.0,1.0,1.0*30
$HCHDM,130,M
$GPRMC,175533.850,A,6008.593,N,02445.376,E,351.0,252.2,200124,000.0,W*70
$HCHDM,130,M
$GPGGA,175534.850,6008.540,N,02445.212,E,1,12,1.0,0.0,M,0.0,M,,*6B
$HCHDM,130,M
$GPGSA,A,3,01,02,03,04,05,06,07,08,09,10,11,12,1.0,1.0,1.0*30
$HCHDM,130,M
$GPRMC,175534.850,A,6008.540,N,02445.212,E,520.5,255.4,200124,000.0,W*7E
$HCHDM,130,M
$GPGGA,175535.850,6008.474,N,02444.954,E,1,12,1.0,0.0,M,0.0,M,,*64
$HCHDM,130,M
$GPGSA,A,3,01,02,03,04,05,06,07,08,09,10,11,12,1.0,1.0,1.0*30
$HCHDM,130,M
$GPRMC,175535.850,A,6008.474,N,02444.954,E,486.4,263.9,200124,000.0,W*75
$HCHDM,130,M
$GPGGA,175536.850,6008.445,N,02444.689,E,1,12,1.0,0.0,M,0.0,M,,*6A
$HCHDM,130,M
$GPGSA,A,3,01,02,03,04,05,06,07,08,09,10,11,12,1.0,1.0,1.0*30
$HCHDM,130,M
$GPRMC,175536.850,A,6008.445,N,02444.689,E,510.9,263.7,200124,000.0,W*76
$HCHDM,130,M
$GPGGA,175537.850,6008.415,N,02444.411,E,1,12,1.0,0.0,M,0.0,M,,*6D
$HCHDM,130,M
$GPGSA,A,3,01,02,03,04,05,06,07,08,09,10,11,12,1.0,1.0,1.0*30
$HCHDM,130,M
$GPRMC,175537.850,A,6008.415,N,02444.411,E,342.0,268.8,200124,000.0,W*7D
$HCHDM,130,M
$GPGGA,175538.850,6008.411,N,02444.220,E,1,12,1.0,0.0,M,0.0,M,,*62
$HCHDM,130,M
$GPGSA,A,3,01,02,03,04,05,06,07,08,09,10,11,12,1.0,1.0,1.0*30
$HCHDM,130,M
$GPRMC,175538.850,A,6008.411,N,02444.220,E,239.5,306.6,200124,000.0,W*7D
$HCHDM,130,M
$GPGGA,175539.850,6008.466,N,02444.146,E,1,12,1.0,0.0,M,0.0,M,,*60
$HCHDM,130,M
$GPGSA,A,3,01,02,03,04,05,06,07,08,09,10,11,12,1.0,1.0,1.0*30
$HCHDM,130,M
$GPRMC,175539.850,A,6008.466,N,02444.146,E,189.5,295.0,200124,000.0,W*7A
$HCHDM,130,M
$GPGGA,175540.850,6008.502,N,02444.068,E,1,12,1.0,0.0,M,0.0,M,,*60
$HCHDM,130,M
$GPGSA,A,3,01,02,03,04,05,06,07,08,09,10,11,12,1.0,1.0,1.0*30
$HCHDM,130,M
$GPRMC,175540.850,A,6008.502,N,02444.068,E,242.0,294.2,200124,000.0,W*78
$HCHDM,130,M
$GPGGA,175541.850,6008.547,N,02443.968,E,1,12,1.0,0.0,M,0.0,M,,*6E
$HCHDM,130,M
$GPGSA,A,3,01,02,03,04,05,06,07,08,09,10,11,12,1.0,1.0,1.0*30
$HCHDM,130,M
$GPRMC,175541.850,A,6008.547,N,02443.968,E,368.9,306.3,200124,000.0,W*7D
$HCHDM,130,M
$GPGGA,175542.850,6008.631,N,02443.852,E,1,12,1.0,0.0,M,0.0,M,,*67
$HCHDM,130,M
$GPGSA,A,3,01,02,03,04,05,06,07,08,09,10,11,12,1.0,1.0,1.0*30
$HCHDM,130,M
$GPRMC,175542.850,A,6008.631,N,02443.852,E,271.0,333.9,200124,000.0,W*78
$HCHDM,130,M
$GPGGA,175543.850,6008.704,N,02443.816,E,1,12,1.0,0.0,M,0.0,M,,*61
$HCHDM,130,M
$GPGSA,A,3,01,02,03,04,05,06,07,08,09,10,11,12,1.0,1.0,1.0*30
$HCHDM,130,M
$GPRMC,175543.850,A,6008.704,N,02443.816,E,248.7,286.9,200124,000.0,W*7C
$HCHDM,130,M
$GPGGA,175544.850,6008.740,N,02443.698,E,1,12,1.0,0.0,M,0.0,M,,*6E
$HCHDM,130,M
$GPGSA,A,3,01,02,03,04,05,06,07,08,09,10,11,12,1.0,1.0,1.0*30
$HCHDM,130,M
$GPRMC,175544.850,A,6008.740,N,02443.698,E,377.5,262.4,200124,000.0,W*7B
$HCHDM,130,M
$GPGGA,175545.850,6008.713,N,02443.494,E,1,12,1.0,0.0,M,0.0,M,,*67
$HCHDM,130,M
$GPGSA,A,3,01,02,03,04,05,06,07,08,09,10,11,12,1.0,1.0,1.0*30
$HCHDM,130,M
$GPRMC,175545.850,A,6008.713,N,02443.494,E,270.6,236.1,200124,000.0,W*73
$HCHDM,130,M
$GPGGA,175546.850,6008.653,N,02443.404,E,1,12,1.0,0.0,M,0.0,M,,*68
$HCHDM,130,M
$GPGSA,A,3,01,02,03,04,05,06,07,08,09,10,11,12,1.0,1.0,1.0*30
$HCHDM,130,M
$GPRMC,175546.850,A,6008.653,N,02443.404,E,258.3,257.3,200124,000.0,W*76
$HCHDM,130,M
$GPGGA,175547.850,6008.624,N,02443.273,E,1,12,1.0,0.0,M,0.0,M,,*6F
$HCHDM,130,M
$GPGSA,A,3,01,02,03,04,05,06,07,08,09,10,11,12,1.0,1.0,1.0*30
$HCHDM,130,M
$GPRMC,175547.850,A,6008.624,N,02443.273,E,258.3,257.3,200124,000.0,W*71
$HCHDM,130,M
